lon,lat,centroids_dense,district,township,neighborhood,building,streetNumber,date
121.46737988461538,31.21978762820513,78,黄浦区,瑞金二路街道,乐安坊,乐安坊,淮海中路,2022-04-28
121.56909935483871,31.17414,31,浦东新区,北蔡镇,[],[],五星路,2022-04-28
121.3002578125,31.160672124999998,16,青浦区,徐泾镇,[],[],高泾路,2022-04-28
121.76283786666667,31.0508732,15,浦东新区,惠南镇,[],[],城东路,2022-04-28
121.54817369444444,31.28634938888889,36,杨浦区,长白新村街道,[],[],图们路,2022-04-28
121.3102847,31.29769,10,嘉定区,南翔镇,[],[],古猗园路,2022-04-28
121.50065971052632,31.13826060526316,38,浦东新区,三林镇,[],旗轩弄小菜,东林街,2022-04-28
121.19532766666667,30.945609666666666,3,松江区,泖港镇,[],[],范家公路,2022-04-28
121.68950553846155,31.23326523076923,13,浦东新区,唐镇,[],[],港湾路,2022-04-28
121.41357166666667,31.14653938095238,21,徐汇区,康健新村街道,[],[],桂平支路,2022-04-28
121.44574761702128,31.309473489361704,47,静安区,彭浦新村街道,彭新小区,[],曲沃路,2022-04-28
121.304136,31.02211030769231,13,松江区,中山街道,[],[],车新公路,2022-04-28
121.49013375568182,31.21871011931818,176,黄浦区,老西门街道,[],[],蓬莱路,2022-04-28
121.41377347826086,31.239925956521738,23,普陀区,曹杨新村街道,[],[],曹杨路,2022-04-28
121.44791555737704,31.187979409836064,61,徐汇区,枫林路街道,上海市精神卫生中心(宛平南路),[],零陵路,2022-04-28
121.22017475,31.3040955,8,嘉定区,安亭镇,[],[],先锋路,2022-04-28
121.6120358,31.0298179,10,浦东新区,航头镇,[],[],航帆路,2022-04-28
121.46830353424657,31.263392561643837,73,静安区,宝山路街道,[],[],西藏北路,2022-04-28
121.59802734615384,31.271610653846153,26,浦东新区,浦兴路街道,[],南阳国际娱乐总汇,博兴路,2022-04-28
121.506375,31.704648,1,崇明区,东平镇,[],[],东风公路,2022-04-28
121.52418008510638,31.219310468085105,47,浦东新区,潍坊新村街道,潍坊四村,[],浦电路,2022-04-28
121.91282266666667,30.892360166666666,6,浦东新区,南汇新城镇,[],[],方竹路,2022-04-28
121.59141055555556,31.090896944444445,18,浦东新区,周浦镇,[],[],周东南路,2022-04-28
121.06559633333333,31.113155666666668,3,青浦区,朱家角镇,[],[],酒龙路,2022-04-28
121.16986349999999,31.205999249999998,4,青浦区,重固镇,[],[],徐山路,2022-04-28
121.64885691666666,31.223864916666667,12,浦东新区,唐镇,[],[],唐陆公路,2022-04-28
121.49609736206897,31.166630431034484,58,浦东新区,上钢新村街道,[],[],上南路,2022-04-28
121.51222925,31.271331925,40,杨浦区,江浦路街道,辽源三村小区,辽源三村小区,许昌路,2022-04-28
121.40440521428572,31.08793257142857,13,闵行区,颛桥镇,[],[],金都路,2022-04-28
121.31146275,31.263075333333333,12,嘉定区,江桥镇,[],[],金园二路,2022-04-28
121.74788971428572,31.150516857142858,7,浦东新区,祝桥镇,[],[],施湾三路,2022-04-28
121.5355896451613,31.31805835483871,31,杨浦区,殷行街道,国和路市光一村,[],国和路,2022-04-28
121.515385,30.815234,1,奉贤区,海湾镇,[],[],金汇塘路,2022-04-28
121.64436377777778,31.267128111111113,9,浦东新区,曹路镇,[],[],金海路,2022-04-28
121.38394772727273,31.254343454545456,22,普陀区,真如镇街道,真情公寓,[],铜川路,2022-04-28
121.57391876666667,31.251343833333333,30,浦东新区,金杨新村街道,[],[],张杨路,2022-04-28
121.22851966666667,31.431471000000002,3,嘉定区,徐行镇,[],[],宝钱公路,2022-04-28
121.4409448235294,31.139631088235294,35,徐汇区,长桥街道,园南一村,[],上中路,2022-04-28
121.54370724242425,31.16634187878788,33,浦东新区,北蔡镇,[],[],下南路,2022-04-28
121.46913471428572,31.040919285714285,7,闵行区,吴泾镇,[],[],龙吴路,2022-04-28
121.48139390804597,31.2050398045977,87,黄浦区,五里桥街道,[],[],局门路,2022-04-28
121.48232903409091,31.236737045454547,88,黄浦区,外滩街道,[],[],山西南路,2022-04-28
121.22389809090909,31.233684545454548,11,青浦区,华新镇,[],[],新凤北路,2022-04-28
121.26934920000001,31.1088267,10,松江区,泗泾镇,[],[],西安路,2022-04-28
121.50740185185185,31.305317185185185,27,杨浦区,五角场街道,[],[],伟康路,2022-04-28
121.1692572,31.3718046,5,嘉定区,外冈镇,[],[],沪宜公路,2022-04-28
121.2853135,31.337481083333333,12,嘉定区,马陆镇,[],[],马陆塘街,2022-04-28
121.46270593181818,31.253628261363637,88,静安区,芷江西路街道,[],[],中华新路,2022-04-28
121.76085549999999,31.351278,2,崇明区,长兴镇,[],[],长兴江南大道,2022-04-28
121.52621969444445,31.284993222222223,36,杨浦区,控江路街道,控江四村小区,[],靖宇中路,2022-04-28
121.3269488,31.1306279,10,松江区,九亭镇,沪亭小区,[],沪亭路,2022-04-28
121.877426,30.98253975,4,浦东新区,书院镇,[],[],新府路,2022-04-28
121.60926138461538,31.136688461538462,13,浦东新区,康桥镇,[],[],秀沿路,2022-04-28
121.66293855555556,31.295811333333333,9,浦东新区,曹路镇,[],[],顾曹公路,2022-04-28
121.43995835820895,31.233516552238807,67,静安区,曹家渡街道,[],[],昌平路,2022-04-28
121.52344629166666,31.13406775,24,浦东新区,三林镇,[],[],金谊路,2022-04-28
121.51461117948718,31.189094102564102,39,浦东新区,南码头路街道,[],[],浦三路,2022-04-28
121.29619782352941,31.195365588235294,17,青浦区,徐泾镇,[],[],崧泽大道,2022-04-28
121.53027466666667,31.069195222222223,9,闵行区,浦江镇,[],[],群益路,2022-04-28
121.8260785,30.8944585,2,浦东新区,泥城镇,[],[],新元南路,2022-04-28
121.69175895238095,31.194916857142857,21,浦东新区,川沙新镇,[],[],城西路,2022-04-28
121.13607175,31.033215,4,松江区,小昆山镇,[],[],平原街,2022-04-28
121.46589989230769,31.198539569230768,65,徐汇区,斜土路街道,[],[],茶陵北路,2022-04-28
121.551602,31.241637448275863,29,浦东新区,洋泾街道,[],[],张杨路,2022-04-28
121.40104785714286,31.023549285714285,7,闵行区,颛桥镇,[],[],中春路,2022-04-28
121.57323361538461,31.342117076923078,13,浦东新区,高桥镇,[],[],清溪路,2022-04-28
121.70292366666666,31.102302333333334,3,浦东新区,川沙新镇,[],[],鹿溪路,2022-04-28
121.36407371428571,31.170892714285714,7,闵行区,虹桥镇,紫藤居,[],吴中路,2022-04-28
121.565842,31.127261588235292,17,浦东新区,康桥镇,绿宝园,[],秀浦路,2022-04-28
121.44564561363636,31.165138477272727,44,徐汇区,漕河泾街道,[],[],龙吴路,2022-04-28
121.42868404347826,31.27676791304348,23,静安区,彭浦镇,[],龙泉大酒店,沪太路,2022-04-28
121.24883855555555,31.173879666666668,9,青浦区,徐泾镇,[],[],诸陆西路,2022-04-28
121.7608295,30.974815,2,浦东新区,大团镇,[],[],墩艺路,2022-04-28
121.63553121428572,31.185720857142858,14,浦东新区,张江镇,[],[],高木桥路,2022-04-28
121.35020352,31.2627058,25,嘉定区,江桥镇,[],[],海川路,2022-04-28
121.62865621428571,31.311247357142857,14,浦东新区,高东镇,[],[],赵高公路,2022-04-28
121.2554256,31.0258442,10,松江区,中山街道,[],[],美能达路,2022-04-28
121.67862861111111,31.271936888888888,18,浦东新区,曹路镇,[],[],镇北路,2022-04-28
121.1765155,31.114382,2,松江区,佘山镇,[],[],泗陈公路,2022-04-28
121.61434907692308,31.208842923076922,13,浦东新区,张江镇,[],[],张江路,2022-04-28
121.24126033333333,31.382577333333334,3,嘉定区,嘉定镇街道,[],[],清河路,2022-04-28
121.44904706122449,31.26417869387755,49,静安区,共和新路街道,[],[],洛川中路,2022-04-28
121.45592709589042,31.211317287671232,73,徐汇区,天平路街道,天平街道桃源村小区,[],复兴中路,2022-04-28
121.42622636,31.18564358,50,徐汇区,田林街道,宜德苑,[],古宜路,2022-04-28
121.51626447619047,31.23396023809524,21,浦东新区,陆家嘴街道,[],[],南泉北路,2022-04-28
121.7102148,31.159399200000003,5,浦东新区,川沙新镇,[],[],川宏路,2022-04-28
121.58038145454546,31.271713272727272,22,浦东新区,沪东新村街道,[],[],博兴路,2022-04-28
121.046187,30.969195,1,松江区,新浜镇,[],[],朱枫公路,2022-04-28
121.53940877142857,31.268961314285715,35,杨浦区,大桥街道,[],[],河间路,2022-04-28
121.336208625,31.074169,8,松江区,新桥镇,[],[],陈春路,2022-04-28
121.32324908695652,31.23775304347826,23,嘉定区,江桥镇,[],[],鹤旋路,2022-04-28
121.71242000000001,31.030248,2,浦东新区,惠南镇,[],[],南芦公路,2022-04-28
121.42608664705882,31.12480288235294,17,闵行区,梅陇镇,[],[],朱行路,2022-04-28
121.49363368656716,31.208283746268656,67,黄浦区,半淞园路街道,上海大同中学教师楼,[],车站支路,2022-04-28
121.46278129411765,31.115603294117648,17,徐汇区,华泾镇,[],[],龙吴路,2022-04-28
121.46698175714286,31.2362446,70,黄浦区,南京东路街道,[],新昌路345弄29号,新昌路,2022-04-28
121.7216617,31.242441200000002,10,浦东新区,合庆镇,[],[],福庆路,2022-04-28
121.52170033333333,31.340076111111113,9,杨浦区,新江湾城街道,[],[],国帆路,2022-04-28
121.54968236,31.19268604,25,浦东新区,花木街道,[],[],芳草路,2022-04-28
121.37096064285714,31.137529,14,闵行区,七宝镇,[],[],新镇路,2022-04-28
