lon,lat,centroids_dense,district,township,neighborhood,building,streetNumber,date
121.41515505,31.00467185,20,闵行区,江川路街道,[],[],宾川路,2022-04-16
121.53202356521739,31.263589673913042,46,杨浦区,大桥街道,[],[],河间路,2022-04-16
121.44100545,31.22018855,40,静安区,静安寺街道,美丽园居民区(南京西路),绿意餐厅,南京西路,2022-04-16
121.7024154,31.1030427,10,浦东新区,川沙新镇,[],[],鹿吉路,2022-04-16
121.65000756862744,31.212692862745097,51,浦东新区,唐镇,[],[],春源路,2022-04-16
121.3267551707317,31.23324031707317,41,嘉定区,江桥镇,[],[],爱特路,2022-04-16
121.57183723214285,31.119534107142858,58,浦东新区,康桥镇,[],[],上南路,2022-04-16
121.34790133333334,31.40714322222222,18,宝山区,罗店镇,[],[],月罗公路,2022-04-16
121.42300453623189,31.185675333333332,69,徐汇区,田林街道,明园·小安桥,[],中山西路,2022-04-16
121.48004337984496,31.204143124031006,129,黄浦区,五里桥街道,[],五里桥路235弄3号,斜土路,2022-04-16
121.49842937254901,31.310019901960786,51,杨浦区,新江湾城街道,东方锦园,[],政青路,2022-04-16
121.4237184923077,31.121526461538462,65,闵行区,梅陇镇,[],虹梅南路1301弄99号,虹梅南路,2022-04-16
121.4370795,30.813859785714286,14,金山区,漕泾镇,[],[],苍工路,2022-04-16
121.2626542631579,31.34379647368421,19,嘉定区,菊园新区,[],[],宝塔路,2022-04-16
121.2419443,31.039939699999998,10,松江区,中山街道,[],[],茸北路,2022-04-16
121.91581366666666,30.915558166666667,6,浦东新区,南汇新城镇,[],[],夏栎路,2022-04-16
121.63111088888888,31.30883988888889,27,浦东新区,高东镇,[],国懋船用品有限公司,赵高公路,2022-04-16
121.49613005932204,31.167980101694916,118,浦东新区,上钢新村街道,德州五村,[],德州路,2022-04-16
121.51927303883495,31.18975067961165,103,浦东新区,南码头路街道,[],[],齐恒路,2022-04-16
121.4109185510204,31.298786,49,宝山区,大场镇,[],[],真大路,2022-04-16
121.72656163333333,31.238471166666667,30,浦东新区,合庆镇,[],[],前哨路,2022-04-16
121.14049644444444,31.164371888888887,9,青浦区,夏阳街道,[],[],华科路,2022-04-16
121.45840103076922,31.3353048,65,宝山区,张庙街道,泗塘二、三村小区,[],虎林路,2022-04-16
121.57513023611111,31.254451125,72,浦东新区,金杨新村街道,金桥瑞仕花园,[],枣庄路,2022-04-16
121.52185914814815,31.04165811111111,27,闵行区,浦江镇,[],[],联跃路,2022-04-16
121.35165342553192,31.15937580851064,47,闵行区,七宝镇,[],[],新龙路,2022-04-16
121.53334134090909,31.31948822727273,44,杨浦区,殷行街道,市光四村,[],市光路,2022-04-16
121.74653064705882,31.170457647058825,17,浦东新区,祝桥镇,[],[],海霞路,2022-04-16
121.83949433333333,31.494649333333335,3,崇明区,陈家镇,[],[],[],2022-04-16
121.4255452361111,31.26105422222222,72,普陀区,甘泉路街道,甘陵小区,[],甘泉路,2022-04-16
121.4515283125,31.122409791666666,48,徐汇区,华泾镇,[],[],华泾路,2022-04-16
121.8436038,31.0106145,10,浦东新区,老港镇,[],[],建中路,2022-04-16
121.41622146153846,31.421285884615386,26,宝山区,月浦镇,[],[],申浦路,2022-04-16
121.56999432203389,31.344866711864405,59,浦东新区,高桥镇,潼港六村(北区),和龙路371弄100号,花山路,2022-04-16
121.68826025,31.25756565625,32,浦东新区,曹路镇,[],[],龚丰路,2022-04-16
121.56262253225806,31.18593276612903,124,浦东新区,北蔡镇,莲馨苑,[],北中路,2022-04-16
121.59854878787878,31.12867333333333,32,浦东新区,康桥镇,[],[],秀浦路,2022-04-16
121.5654625,30.8775905,4,奉贤区,青村镇,[],[],奉柘公路,2022-04-16
121.6015341388889,31.266649527777776,72,浦东新区,浦兴路街道,金厦小区,[],东陆路,2022-04-16
121.8226536,30.902692066666667,15,浦东新区,泥城镇,[],[],南芦公路,2022-04-16
121.49314531455398,31.219110352112676,213,黄浦区,老西门街道,[],[],凝和路,2022-04-16
121.62713142105264,31.01780042105263,19,浦东新区,新场镇,[],[],笋心路,2022-04-16
121.2884856,30.7634904,5,金山区,金山卫镇,[],[],茸卫公路,2022-04-16
121.40274427272728,31.080106454545454,44,闵行区,颛桥镇,[],[],都市路,2022-04-16
121.20883223809524,31.21849261904762,21,青浦区,华新镇,[],[],新协路,2022-04-16
121.30087286666667,31.007240133333333,15,松江区,车墩镇,[],[],北闵路,2022-04-16
121.30711536,31.3026808,25,嘉定区,南翔镇,[],[],德园路,2022-04-16
121.48212554166666,31.398572083333335,24,宝山区,友谊路街道,宝钢宝林一村,[],宝杨路,2022-04-16
121.37726052238806,31.249039253731343,67,嘉定区,真新街道,[],[],万镇路,2022-04-16
121.67308622727273,31.167422318181817,22,浦东新区,川沙新镇,[],[],迎春街,2022-04-16
121.52296481904762,31.22359779047619,105,浦东新区,潍坊新村街道,潍坊六、七村,[],浦电路,2022-04-16
121.47767843243243,31.2397489527027,148,黄浦区,南京东路街道,[],上海科技京城C区,厦门路,2022-04-16
121.45504865625,31.267410015625,64,静安区,共和新路街道,[],[],洛川中路,2022-04-16
121.12915666666667,30.900600999999998,3,金山区,朱泾镇,[],[],亭枫公路,2022-04-16
121.75176828125,31.04968584375,32,浦东新区,惠南镇,[],[],人民西路,2022-04-16
121.1417528,31.0353684,5,松江区,小昆山镇,[],[],平原街,2022-04-16
121.2321597,31.3921482,20,嘉定区,徐行镇,[],[],皇庆路,2022-04-16
121.4647725409836,31.21506510928962,183,黄浦区,瑞金二路街道,瑞金二路48弄小区,复兴中路588弄小区,瑞金二路,2022-04-16
121.3421628125,31.275062375,48,普陀区,桃浦镇,[],[],金昌路,2022-04-16
121.45951033333334,31.04584015151515,33,闵行区,吴泾镇,[],[],景东路,2022-04-16
121.53528883333334,31.28817974074074,54,杨浦区,延吉新村街道,[],延春公园,营口路,2022-04-16
121.62234837096774,31.195166870967743,62,浦东新区,张江镇,[],[],蔡伦路85弄,2022-04-16
121.31202261538462,31.466703153846154,13,嘉定区,华亭镇,[],[],沪樊路,2022-04-16
121.54780078571429,31.165302581632652,98,浦东新区,北蔡镇,[],[],杨莲路,2022-04-16
121.29085214814815,31.20226648148148,27,闵行区,华漕镇,[],[],诸光路,2022-04-16
121.50893706976744,31.13820174418605,86,浦东新区,三林镇,[],[],永泰路,2022-04-16
121.40626792957747,31.14900336619718,71,闵行区,古美街道,蔚蓝城市花园,[],平吉路,2022-04-16
121.39517225,31.0329525,40,闵行区,颛桥镇,[],[],花王路,2022-04-16
121.38030388095238,31.179513928571428,42,闵行区,虹桥镇,[],[],合川路,2022-04-16
121.286876625,31.3966365625,16,嘉定区,马陆镇,[],[],立新路,2022-04-16
121.19842276470588,31.329147176470588,17,嘉定区,安亭镇,[],[],百安公路,2022-04-16
121.44230096341464,31.161177670731707,82,徐汇区,漕河泾街道,[],[],南宁路,2022-04-16
121.43295518867924,31.089701264150943,53,闵行区,梅陇镇,[],[],曹建路,2022-04-16
121.78750966666666,31.344486333333332,3,崇明区,长兴镇,[],[],潘圆公路,2022-04-16
121.43128908823529,31.369631588235293,34,宝山区,杨行镇,[],[],蕰川公路,2022-04-16
121.33659441666667,31.082928416666668,12,松江区,新桥镇,聚丰苑,[],明兴路,2022-04-16
121.35312449999999,30.8619855,4,金山区,亭林镇,[],[],林慧路,2022-04-16
121.59431837837838,31.08520727027027,36,浦东新区,航头镇,[],[],航瑞路,2022-04-16
121.75853138888888,31.12604988888889,18,浦东新区,祝桥镇,[],[],祝潘公路,2022-04-16
121.55090327659575,31.276395127659573,47,杨浦区,定海路街道,益民小区,[],内江路,2022-04-16
121.619783,31.541197,1,崇明区,堡镇,[],[],工农路,2022-04-16
121.66160175342466,31.277648273972602,73,浦东新区,曹路镇,[],[],民雨路,2022-04-16
121.37352622222222,31.332728638888888,36,宝山区,顾村镇,[],[],顾陈路,2022-04-16
121.3788193275862,31.118893086206896,58,闵行区,莘庄镇,[],[],报春路,2022-04-16
121.43699266666667,30.929022333333332,3,奉贤区,南桥镇,[],[],八字桥路,2022-04-16
121.48229225714286,31.359967885714287,35,宝山区,淞南镇,[],[],长江西路,2022-04-16
121.51381164473685,31.27649319736842,76,杨浦区,四平路街道,鞍山一村,[],本溪路,2022-04-16
121.55103124,31.2395868,75,浦东新区,洋泾街道,弘扬沁园,弘扬沁园,张杨路,2022-04-16
121.27000942857143,31.139829357142858,14,青浦区,[],[],[],前云路,2022-04-16
121.44639443835617,31.237542931506848,146,静安区,江宁路街道,大闻丽都苑,[],新丰路,2022-04-16
121.45275348571428,31.313087142857142,70,静安区,彭浦新村街道,平顺小区,[],平顺路,2022-04-16
121.45173260674157,31.190636101123594,89,徐汇区,枫林路街道,东安三村(零陵路),[],零陵路,2022-04-16
121.3907844,30.7516692,5,金山区,山阳镇,[],[],汀南路,2022-04-16
121.40989705882353,31.236910352941177,85,普陀区,曹杨新村街道,[],[],梅岭南路,2022-04-16
121.50428294736842,31.081062210526316,19,闵行区,浦锦街道,[],[],浦申路,2022-04-16
121.78526775,30.98059225,4,浦东新区,大团镇,[],[],三三公路,2022-04-16
121.37047,30.817981,6,金山区,漕泾镇,[],[],平业路,2022-04-16
121.69693161666666,31.195689333333334,60,浦东新区,川沙新镇,[],[],城西路,2022-04-16
121.58434318644068,31.28238425423729,59,浦东新区,沪东新村街道,[],[],莱阳路,2022-04-16
121.54243960000001,30.9456312,5,奉贤区,青村镇,[],[],于庄路,2022-04-16
