lon,lat,centroids_dense,district,township,neighborhood,building,streetNumber,date
121.56436094117647,31.184528235294117,68,浦东新区,北蔡镇,[],[],北中路,2022-04-20
121.2893774090909,31.181853272727274,22,青浦区,徐泾镇,[],[],盈港东路,2022-04-20
121.46745943971631,31.222206716312055,141,黄浦区,瑞金二路街道,[],[],长乐路,2022-04-20
121.45930147826087,31.31905793478261,46,静安区,临汾路街道,[],[],阳曲路,2022-04-20
121.277724,30.740558,1,金山区,金山卫镇,[],[],金石南路,2022-04-20
121.30538581395349,31.018152744186047,43,松江区,中山街道,[],[],新车公路,2022-04-20
121.85505883333333,30.988947666666668,6,浦东新区,书院镇,[],[],定武路,2022-04-20
121.268795,31.3308303125,16,嘉定区,马陆镇,[],[],封周路,2022-04-20
121.6967289,31.2595775,10,浦东新区,曹路镇,[],[],龚丰路,2022-04-20
121.4910329,31.1209867,30,闵行区,浦锦街道,[],[],红临路,2022-04-20
121.140583,31.03145988888889,9,松江区,小昆山镇,[],[],昆港公路,2022-04-20
121.58645917307692,31.277845499999998,52,浦东新区,沪东新村街道,爱法新城,[],张杨北路,2022-04-20
121.3822409375,31.427189249999998,16,宝山区,罗店镇,[],[],苗圃路,2022-04-20
121.309506,31.291308523809523,21,嘉定区,南翔镇,[],[],人民街,2022-04-20
121.54327732,31.2057924,26,浦东新区,花木街道,[],上海东昌汽车服务有限公司,浦建路,2022-04-20
121.47805057,31.23611837,200,黄浦区,南京东路街道,[],[],浙江中路,2022-04-20
121.63792875,31.1672671,20,浦东新区,张江镇,[],[],横沔江路,2022-04-20
121.48989538709678,31.383267419354837,31,宝山区,吴淞街道,[],[],水产路,2022-04-20
121.41760758333334,31.1524005625,48,徐汇区,康健新村街道,[],[],桂林西街,2022-04-20
121.5745924,31.1168918,15,浦东新区,周浦镇,[],[],康沈路,2022-04-20
121.17011875,31.179542083333335,12,青浦区,香花桥街道,[],[],崧华路,2022-04-20
121.45004814705882,31.368637647058822,34,宝山区,杨行镇,[],[],松兰路,2022-04-20
121.297174,31.14934875,20,松江区,九里亭街道,[],[],朗亭路,2022-04-20
121.4824946875,31.20510503977273,176,黄浦区,五里桥街道,[],[],局门路,2022-04-20
121.38072952941177,31.31973117647059,17,宝山区,大场镇,[],[],锦秋路,2022-04-20
121.4196118,30.7984698,5,金山区,漕泾镇,[],[],共建路,2022-04-20
121.710731,31.032135,3,浦东新区,惠南镇,[],[],园西路,2022-04-20
121.44456795384616,31.165897584615383,65,徐汇区,漕河泾街道,[],[],凯旋南路,2022-04-20
121.47025698901099,31.255916736263735,91,静安区,宝山路街道,[],[],中兴路,2022-04-20
121.7518345,31.136664166666666,6,浦东新区,祝桥镇,[],[],凌空路,2022-04-20
121.217814,31.43395,7,嘉定区,徐行镇,[],[],小东街,2022-04-20
121.1463006,30.8885532,5,金山区,朱泾镇,[],[],朱平公路,2022-04-20
121.35335479310345,31.25454193103448,29,嘉定区,真新街道,[],[],西栅桥路,2022-04-20
121.6009235,31.088122357142858,14,浦东新区,周浦镇,[],[],瑞和路,2022-04-20
121.583518,31.647706,1,崇明区,东平镇,[],[],北沿公路,2022-04-20
121.57016710638298,31.253097723404256,47,浦东新区,金杨新村街道,黄山新城,[],博山东路,2022-04-20
121.49145023728813,31.168075050847456,59,浦东新区,上钢新村街道,德州二村,[],德州路,2022-04-20
121.33033180952381,31.07646757142857,21,松江区,新桥镇,[],[],明中路,2022-04-20
121.43956918571429,31.226579571428573,70,静安区,曹家渡街道,金家巷(万航渡路249弄小区东北),[],新闸路,2022-04-20
121.8264825,30.899425,4,浦东新区,泥城镇,[],[],泥城路,2022-04-20
121.20946057142856,31.03178192857143,14,松江区,方松街道,[],[],文诚路,2022-04-20
121.20613571428572,31.13350557142857,7,松江区,佘山镇,[],[],业煌路,2022-04-20
121.5670505625,31.344371,16,浦东新区,高桥镇,[],[],花山路,2022-04-20
121.69335044444445,31.197214111111112,18,浦东新区,川沙新镇,[],[],广厦路,2022-04-20
121.429984,31.28108142857143,35,静安区,彭浦镇,永灵小区,[],高平路,2022-04-20
121.50291314035087,31.149019859649123,57,浦东新区,三林镇,杨南新村,[],上浦路,2022-04-20
121.3074702,30.9374694,5,松江区,叶榭镇,[],[],叶乐路,2022-04-20
121.31990963636363,31.46048809090909,11,宝山区,罗泾镇,[],[],沪太路,2022-04-20
121.22737157142856,31.205975285714285,7,青浦区,华新镇,[],[],凤星路,2022-04-20
121.44794634285714,31.190086571428573,70,徐汇区,徐家汇街道,[],[],宛平南路,2022-04-20
121.6297405,31.317883,8,浦东新区,高东镇,[],[],园恒路,2022-04-20
121.5143249661017,31.186202525423727,59,浦东新区,周家渡街道,怡泰家苑,[],南码头路,2022-04-20
121.42703025490196,31.185301529411763,51,徐汇区,田林街道,[],[],宜山路,2022-04-20
121.48101930612245,31.33141542857143,49,宝山区,淞南镇,四季绿城,[],长江南路,2022-04-20
121.66245942105263,31.281402368421052,19,浦东新区,曹路镇,[],[],华东路,2022-04-20
121.23937925,31.3811930625,16,嘉定区,菊园新区,清河路202弄小区,[],嘉定环城路,2022-04-20
121.7285119,31.2453933,10,浦东新区,合庆镇,[],[],前哨支路,2022-04-20
121.6442649375,31.2216484375,16,浦东新区,唐镇,[],[],龙东高架路辅路,2022-04-20
121.1619485,31.2917615,2,嘉定区,安亭镇,[],[],泽普路,2022-04-20
121.365414,31.36118509090909,11,宝山区,顾村镇,[],[],沪联路,2022-04-20
121.61271128571428,31.03054285714286,7,浦东新区,航头镇,[],[],航同路,2022-04-20
121.4257720952381,31.33411866666667,21,宝山区,庙行镇,[],[],刘场路,2022-04-20
121.54211482258064,31.168297677419353,61,浦东新区,北蔡镇,[],[],下南路,2022-04-20
121.6985796,31.1111072,5,浦东新区,川沙新镇,[],[],鹿溪路,2022-04-20
121.43177386363637,31.404124318181818,22,宝山区,月浦镇,富锦苑,[],绥化路,2022-04-20
121.455457984375,31.266589734375,64,静安区,共和新路街道,[],[],洛川中路,2022-04-20
121.49592767647059,31.222211411764707,102,黄浦区,小东门街道,西姚小区,[],西姚家弄,2022-04-20
121.52090190243902,31.226705146341462,82,浦东新区,潍坊新村街道,繁荣昌盛小区,新昌大楼,张杨路,2022-04-20
121.04947,31.119989500000003,2,青浦区,朱家角镇,[],[],珠湖路,2022-04-20
121.32807726666667,31.1327602,30,松江区,九亭镇,沪亭苑,[],康亭路,2022-04-20
121.55539,30.9047785,2,奉贤区,青村镇,[],[],沿钱公路,2022-04-20
121.255613125,31.106670375,16,松江区,泗泾镇,[],[],古楼公路,2022-04-20
121.62001366666667,31.273713166666667,12,浦东新区,金桥镇,[],[],金京路,2022-04-20
121.76526485714285,31.064236142857144,7,浦东新区,惠南镇,[],[],川南奉公路,2022-04-20
121.90842166666667,30.880648333333333,3,浦东新区,南汇新城镇,[],[],沪城环路,2022-04-20
121.33688496428572,31.31097732142857,28,嘉定区,南翔镇,[],[],德力西路,2022-04-20
121.10703975,31.185838,4,青浦区,香花桥街道,[],[],拓青路,2022-04-20
121.44580945454545,31.1305175,44,徐汇区,长桥街道,[],[],罗秀路,2022-04-20
121.32164225806451,31.251067838709677,31,嘉定区,江桥镇,[],[],金运路,2022-04-20
121.40777352173913,31.296904913043477,23,宝山区,大场镇,[],[],真大路,2022-04-20
121.243443,31.2795055,6,嘉定区,安亭镇,[],[],春意路,2022-04-20
121.297437625,31.360406875,8,嘉定区,马陆镇,[],[],丰登路,2022-04-20
121.59368282222222,31.260935333333332,45,浦东新区,浦兴路街道,清水苑(台儿庄路),[],长岛路,2022-04-20
121.25126265,31.01360245,20,松江区,中山街道,[],[],松东路,2022-04-20
121.5270989032258,31.135557387096775,31,浦东新区,三林镇,[],[],林鸣路,2022-04-20
121.49602749462366,31.2070631827957,93,黄浦区,半淞园路街道,瞿溪新村,[],瞿溪路,2022-04-20
121.44236040625,31.31735740625,32,静安区,彭浦新村街道,银都一村,[],保德路,2022-04-20
121.54908307142857,31.240168761904762,42,浦东新区,洋泾街道,[],[],苗圃路,2022-04-20
121.36525066666667,30.831725666666667,3,金山区,漕泾镇,[],[],金蒋路,2022-04-20
121.29461,30.812811,2,金山区,张堰镇,[],[],松金公路,2022-04-20
121.45218361818182,31.239196781818183,55,静安区,江宁路街道,三乐新村,[],西苏州路,2022-04-20
121.21994957142857,31.326258714285714,7,嘉定区,安亭镇,[],[],东环路,2022-04-20
121.462784292517,31.204486367346938,147,黄浦区,打浦桥街道,联兴大厦,[],肇嘉浜路,2022-04-20
121.34586469999999,31.4071768,10,宝山区,罗店镇,[],[],月罗公路,2022-04-20
121.57371579166667,31.156715541666667,24,浦东新区,北蔡镇,F欧香四季(地杰国际城北),[],御青路,2022-04-20
121.41052215,31.3648096,20,宝山区,顾村镇,[],[],富联路,2022-04-20
121.13854599999999,30.97216075,4,松江区,石湖荡镇,[],[],闵塔公路,2022-04-20
121.62038305555555,31.200755555555556,18,浦东新区,张江镇,[],[],广兰路,2022-04-20
121.48798189150943,31.217597056603772,212,黄浦区,老西门街道,[],[],蓬莱路,2022-04-20
121.74999925,31.207981750000002,4,浦东新区,合庆镇,[],[],华夏东路,2022-04-20
